{"countries":[
              {"countryName":"Somaliland","capitalName":"Hargeisa","capitalLatitude":9.55,"capitalLongitude":44.050000,"countryCode":"NULL","continentName":"Africa"},
              {"countryName":"South Georgia and South Sandwich Islands","capitalName":"King Edward Point","capitalLatitude":-54.283333,"capitalLongitude":-36.500000,"countryCode":"GS","continentName":"Antarctica"},
              {"countryName":"French Southern and Antarctic Lands","capitalName":"Port-aux-Francais","capitalLatitude":-49.35,"capitalLongitude":70.216667,"countryCode":"TF","continentName":"Antarctica"},
              {"countryName":"Palestine","capitalName":"Jerusalem","capitalLatitude":31.766666666666666,"capitalLongitude":35.233333,"countryCode":"PS","continentName":"Asia"},
              {"countryName":"Aland Islands","capitalName":"Mariehamn","capitalLatitude":60.116667,"capitalLongitude":19.900000,"countryCode":"AX","continentName":"Europe"},
              {"countryName":"Nauru","capitalName":"Yaren","capitalLatitude":-0.5477,"capitalLongitude":166.920867,"countryCode":"NR","continentName":"Oceania"},
              {"countryName":"Saint Martin","capitalName":"Marigot","capitalLatitude":18.0731,"capitalLongitude":-63.082200,"countryCode":"MF","continentName":"North America"},{"countryName":"Tokelau","capitalName":"Atafu","capitalLatitude":-9.166667,"capitalLongitude":-171.833333,"countryCode":"TK","continentName":"Oceania"},
              {"countryName":"Western Sahara","capitalName":"El-Aaiun","capitalLatitude":27.153611,"capitalLongitude":-13.203333,"countryCode":"EH","continentName":"Africa"},
              {"countryName":"Afghanistan","capitalName":"Kabul","capitalLatitude":34.516666666666666,"capitalLongitude":69.183333,"countryCode":"AF","continentName":"Asia"},
              {"countryName":"Albania","capitalName":"Tirana","capitalLatitude":41.31666666666667,"capitalLongitude":19.816667,"countryCode":"AL","continentName":"Europe"},
              {"countryName":"Algeria","capitalName":"Algiers","capitalLatitude":36.75,"capitalLongitude":3.050000,"countryCode":"DZ","continentName":"Africa"},
              {"countryName":"American Samoa","capitalName":"Pago Pago","capitalLatitude":-14.266666666666667,"capitalLongitude":-170.700000,"countryCode":"AS","continentName":"Oceania"},
              {"countryName":"Andorra","capitalName":"Andorra la Vella","capitalLatitude":42.5,"capitalLongitude":1.516667,"countryCode":"AD","continentName":"Europe"},
              {"countryName":"Angola","capitalName":"Luanda","capitalLatitude":-8.833333333333334,"capitalLongitude":13.216667,"countryCode":"AO","continentName":"Africa"},
              {"countryName":"Anguilla","capitalName":"The Valley","capitalLatitude":18.216666666666665,"capitalLongitude":-63.050000,"countryCode":"AI","continentName":"North America"},
              {"countryName":"Antigua and Barbuda","capitalName":"Saint John's","capitalLatitude":17.116666666666667,"capitalLongitude":-61.850000,"countryCode":"AG","continentName":"North America"},
              {"countryName":"Argentina","capitalName":"Buenos Aires","capitalLatitude":-34.583333333333336,"capitalLongitude":-58.666667,"countryCode":"AR","continentName":"South America"},
              {"countryName":"Armenia","capitalName":"Yerevan","capitalLatitude":40.166666666666664,"capitalLongitude":44.500000,"countryCode":"AM","continentName":"Europe"},
              {"countryName":"Aruba","capitalName":"Oranjestad","capitalLatitude":12.516666666666667,"capitalLongitude":-70.033333,"countryCode":"AW","continentName":"North America"},
              {"countryName":"Australia","capitalName":"Canberra","capitalLatitude":-35.266666666666666,"capitalLongitude":149.133333,"countryCode":"AU","continentName":"Oceania"},
              {"countryName":"Austria","capitalName":"Vienna","capitalLatitude":48.2,"capitalLongitude":16.366667,"countryCode":"AT","continentName":"Europe"},
              {"countryName":"Azerbaijan","capitalName":"Baku","capitalLatitude":40.38333333333333,"capitalLongitude":49.866667,"countryCode":"AZ","continentName":"Europe"},
              {"countryName":"Bahamas","capitalName":"Nassau","capitalLatitude":25.083333333333332,"capitalLongitude":-77.350000,"countryCode":"BS","continentName":"North America"},
              {"countryName":"Bahrain","capitalName":"Manama","capitalLatitude":26.233333333333334,"capitalLongitude":50.566667,"countryCode":"BH","continentName":"Asia"},
              {"countryName":"Bangladesh","capitalName":"Dhaka","capitalLatitude":23.716666666666665,"capitalLongitude":90.400000,"countryCode":"BD","continentName":"Asia"},
              {"countryName":"Barbados","capitalName":"Bridgetown","capitalLatitude":13.1,"capitalLongitude":-59.616667,"countryCode":"BB","continentName":"North America"},
              {"countryName":"Belarus","capitalName":"Minsk","capitalLatitude":53.9,"capitalLongitude":27.566667,"countryCode":"BY","continentName":"Europe"},
              {"countryName":"Belgium","capitalName":"Brussels","capitalLatitude":50.833333333333336,"capitalLongitude":4.333333,"countryCode":"BE","continentName":"Europe"},
              {"countryName":"Belize","capitalName":"Belmopan","capitalLatitude":17.25,"capitalLongitude":-88.766667,"countryCode":"BZ","continentName":"Central America"},
              {"countryName":"Benin","capitalName":"Porto-Novo","capitalLatitude":6.483333333333333,"capitalLongitude":2.616667,"countryCode":"BJ","continentName":"Africa"},
              {"countryName":"Bermuda","capitalName":"Hamilton","capitalLatitude":32.28333333333333,"capitalLongitude":-64.783333,"countryCode":"BM","continentName":"North America"},
              {"countryName":"Bhutan","capitalName":"Thimphu","capitalLatitude":27.466666666666665,"capitalLongitude":89.633333,"countryCode":"BT","continentName":"Asia"},
              {"countryName":"Bolivia","capitalName":"La Paz","capitalLatitude":-16.5,"capitalLongitude":-68.150000,"countryCode":"BO","continentName":"South America"},{"countryName":"Bosnia and Herzegovina","capitalName":"Sarajevo","capitalLatitude":43.86666666666667,"capitalLongitude":18.416667,"countryCode":"BA","continentName":"Europe"},{"countryName":"Botswana","capitalName":"Gaborone","capitalLatitude":-24.633333333333333,"capitalLongitude":25.900000,"countryCode":"BW","continentName":"Africa"},{"countryName":"Brasil","capitalName":"Brasilia","capitalLatitude":-15.783333333333333,"capitalLongitude":-47.916667,"countryCode":"BR","continentName":"South America"},
              {"countryName":"British Virgin Islands","capitalName":"Road Town","capitalLatitude":18.416666666666668,"capitalLongitude":-64.616667,"countryCode":"VG","continentName":"North America"},{"countryName":"Brunei Darussalam","capitalName":"Bandar Seri Begawan","capitalLatitude":4.883333333333333,"capitalLongitude":114.933333,"countryCode":"BN","continentName":"Asia"},{"countryName":"Bulgaria","capitalName":"Sofia","capitalLatitude":42.68333333333333,"capitalLongitude":23.316667,"countryCode":"BG","continentName":"Europe"},
              {"countryName":"Burkina Faso","capitalName":"Ouagadougou","capitalLatitude":12.366666666666667,"capitalLongitude":-1.516667,"countryCode":"BF","continentName":"Africa"},{"countryName":"Myanmar","capitalName":"Rangoon","capitalLatitude":16.8,"capitalLongitude":96.150000,"countryCode":"MM","continentName":"Asia"},{"countryName":"Burundi","capitalName":"Bujumbura","capitalLatitude":-3.3666666666666667,"capitalLongitude":29.350000,"countryCode":"BI","continentName":"Africa"},{"countryName":"Cambodia","capitalName":"Phnom Penh","capitalLatitude":11.55,"capitalLongitude":104.916667,"countryCode":"KH","continentName":"Asia"},{"countryName":"Cameroon","capitalName":"Yaounde","capitalLatitude":3.8666666666666667,"capitalLongitude":11.516667,"countryCode":"CM","continentName":"Africa"},{"countryName":"Canada","capitalName":"Ottawa","capitalLatitude":45.416666666666664,"capitalLongitude":-75.700000,"countryCode":"CA","continentName":"North America"},{"countryName":"Cape Verde","capitalName":"Praia","capitalLatitude":14.916666666666666,"capitalLongitude":-23.516667,"countryCode":"CV","continentName":"Africa"},{"countryName":"Cayman Islands","capitalName":"George Town","capitalLatitude":19.3,"capitalLongitude":-81.383333,"countryCode":"KY","continentName":"North America"},{"countryName":"Central African Republic","capitalName":"Bangui","capitalLatitude":4.366666666666666,"capitalLongitude":18.583333,"countryCode":"CF","continentName":"Africa"},{"countryName":"Chad","capitalName":"N'Djamena","capitalLatitude":12.1,"capitalLongitude":15.033333,"countryCode":"TD","continentName":"Africa"},{"countryName":"Chile","capitalName":"Santiago","capitalLatitude":-33.45,"capitalLongitude":-70.666667,"countryCode":"CL","continentName":"South America"},{"countryName":"China","capitalName":"Beijing","capitalLatitude":39.916666666666664,"capitalLongitude":116.383333,"countryCode":"CN","continentName":"Asia"},{"countryName":"Christmas Island","capitalName":"The Settlement","capitalLatitude":-10.416666666666666,"capitalLongitude":105.716667,"countryCode":"CX","continentName":"Oceania"},
              {"countryName":"Cocos Islands","capitalName":"West Island","capitalLatitude":-12.166666666666666,"capitalLongitude":96.833333,"countryCode":"CC","continentName":"Oceania"},{"countryName":"Colombia","capitalName":"Bogota","capitalLatitude":4.6,"capitalLongitude":-74.083333,"countryCode":"CO","continentName":"South America"},{"countryName":"Comoros","capitalName":"Moroni","capitalLatitude":-11.7,"capitalLongitude":43.233333,"countryCode":"KM","continentName":"Africa"},
              {"countryName":"Democratic Republic of the Congo","capitalName":"Kinshasa","capitalLatitude":-4.316666666666666,"capitalLongitude":15.300000,"countryCode":"CD","continentName":"Africa"},
              {"countryName":"Republic of Congo","capitalName":"Brazzaville","capitalLatitude":-4.25,"capitalLongitude":15.283333,"countryCode":"CG","continentName":"Africa"},
              {"countryName":"Cook Islands","capitalName":"Avarua","capitalLatitude":-21.2,"capitalLongitude":-159.766667,"countryCode":"CK","continentName":"Oceania"},
              {"countryName":"Costa Rica","capitalName":"San Jose","capitalLatitude":9.933333333333334,"capitalLongitude":-84.083333,"countryCode":"CR","continentName":"Central America"},{"countryName":"Cote d'Ivoire","capitalName":"Yamoussoukro","capitalLatitude":6.816666666666666,"capitalLongitude":-5.266667,"countryCode":"CI","continentName":"Africa"},{"countryName":"Croatia","capitalName":"Zagreb","capitalLatitude":45.8,"capitalLongitude":16.000000,"countryCode":"HR","continentName":"Europe"},{"countryName":"Cuba","capitalName":"Havana","capitalLatitude":23.116666666666667,"capitalLongitude":-82.350000,"countryCode":"CU","continentName":"North America"},{"countryName":"Curacao","capitalName":"Willemstad","capitalLatitude":12.1,"capitalLongitude":-68.916667,"countryCode":"CW","continentName":"North America"},{"countryName":"Cyprus","capitalName":"Nicosia","capitalLatitude":35.166666666666664,"capitalLongitude":33.366667,"countryCode":"CY","continentName":"Europe"},
              {"countryName":"Czech Republic","capitalName":"Prague","capitalLatitude":50.083333333333336,"capitalLongitude":14.466667,"countryCode":"CZ","continentName":"Europe"},{"countryName":"Denmark","capitalName":"Copenhagen","capitalLatitude":55.666666666666664,"capitalLongitude":12.583333,"countryCode":"DK","continentName":"Europe"},{"countryName":"Djibouti","capitalName":"Djibouti","capitalLatitude":11.583333333333334,"capitalLongitude":43.150000,"countryCode":"DJ","continentName":"Africa"},{"countryName":"Dominica","capitalName":"Roseau","capitalLatitude":15.3,"capitalLongitude":-61.400000,"countryCode":"DM","continentName":"North America"},{"countryName":"Dominican Republic","capitalName":"Santo Domingo","capitalLatitude":18.466666666666665,"capitalLongitude":-69.900000,"countryCode":"DO","continentName":"North America"},{"countryName":"Ecuador","capitalName":"Quito","capitalLatitude":-0.21666666666666667,"capitalLongitude":-78.500000,"countryCode":"EC","continentName":"South America"},{"countryName":"Egypt","capitalName":"Cairo","capitalLatitude":30.05,"capitalLongitude":31.250000,"countryCode":"EG","continentName":"Africa"},
              {"countryName":"El Salvador","capitalName":"San Salvador","capitalLatitude":13.7,"capitalLongitude":-89.200000,"countryCode":"SV","continentName":"Central America"},{"countryName":"Equatorial Guinea","capitalName":"Malabo","capitalLatitude":3.75,"capitalLongitude":8.783333,"countryCode":"GQ","continentName":"Africa"},{"countryName":"Eritrea","capitalName":"Asmara","capitalLatitude":15.333333333333334,"capitalLongitude":38.933333,"countryCode":"ER","continentName":"Africa"},{"countryName":"Estonia","capitalName":"Tallinn","capitalLatitude":59.43333333333333,"capitalLongitude":24.716667,"countryCode":"EE","continentName":"Europe"},
              {"countryName":"Ethiopia","capitalName":"Addis Ababa","capitalLatitude":9.033333333333333,"capitalLongitude":38.700000,"countryCode":"ET","continentName":"Africa"},{"countryName":"Falkland Islands","capitalName":"Stanley","capitalLatitude":-51.7,"capitalLongitude":-57.850000,"countryCode":"FK","continentName":"South America"},
              {"countryName":"Faroe Islands","capitalName":"Torshavn","capitalLatitude":62,"capitalLongitude":-6.766667,"countryCode":"FO","continentName":"Europe"},{"countryName":"Fiji","capitalName":"Suva","capitalLatitude":-18.133333333333333,"capitalLongitude":178.416667,"countryCode":"FJ","continentName":"Oceania"},{"countryName":"Finland","capitalName":"Helsinki","capitalLatitude":60.166666666666664,"capitalLongitude":24.933333,"countryCode":"FI","continentName":"Europe"},{"countryName":"France","capitalName":"Paris","capitalLatitude":48.86666666666667,"capitalLongitude":2.333333,"countryCode":"FR","continentName":"Europe"},
              {"countryName":"French Polynesia","capitalName":"Papeete","capitalLatitude":-17.533333333333335,"capitalLongitude":-149.566667,"countryCode":"PF","continentName":"Oceania"},{"countryName":"Gabon","capitalName":"Libreville","capitalLatitude":0.38333333333333336,"capitalLongitude":9.450000,"countryCode":"GA","continentName":"Africa"},{"countryName":"The Gambia","capitalName":"Banjul","capitalLatitude":13.45,"capitalLongitude":-16.566667,"countryCode":"GM","continentName":"Africa"},{"countryName":"Georgia","capitalName":"Tbilisi","capitalLatitude":41.68333333333333,"capitalLongitude":44.833333,"countryCode":"GE","continentName":"Europe"},{"countryName":"Germany","capitalName":"Berlin","capitalLatitude":52.516666666666666,"capitalLongitude":13.400000,"countryCode":"DE","continentName":"Europe"},{"countryName":"Ghana","capitalName":"Accra","capitalLatitude":5.55,"capitalLongitude":-0.216667,"countryCode":"GH","continentName":"Africa"},{"countryName":"Gibraltar","capitalName":"Gibraltar","capitalLatitude":36.13333333333333,"capitalLongitude":-5.350000,"countryCode":"GI","continentName":"Europe"},{"countryName":"Greece","capitalName":"Athens","capitalLatitude":37.983333333333334,"capitalLongitude":23.733333,"countryCode":"GR","continentName":"Europe"},{"countryName":"Greenland","capitalName":"Nuuk","capitalLatitude":64.18333333333334,"capitalLongitude":-51.750000,"countryCode":"GL","continentName":"North America"},{"countryName":"Grenada","capitalName":"Saint George's","capitalLatitude":12.05,"capitalLongitude":-61.750000,"countryCode":"GD","continentName":"North America"},{"countryName":"Guam","capitalName":"Hagatna","capitalLatitude":13.466666666666667,"capitalLongitude":144.733333,"countryCode":"GU","continentName":"Oceania"},{"countryName":"Guatemala","capitalName":"Guatemala City","capitalLatitude":14.616666666666667,"capitalLongitude":-90.516667,"countryCode":"GT","continentName":"Central America"},{"countryName":"Guernsey","capitalName":"Saint Peter Port","capitalLatitude":49.45,"capitalLongitude":-2.533333,"countryCode":"GG","continentName":"Europe"},{"countryName":"Guinea","capitalName":"Conakry","capitalLatitude":9.5,"capitalLongitude":-13.700000,"countryCode":"GN","continentName":"Africa"},
              {"countryName":"Guinea-Bissau","capitalName":"Bissau","capitalLatitude":11.85,"capitalLongitude":-15.583333,"countryCode":"GW","continentName":"Africa"},{"countryName":"Guyana","capitalName":"Georgetown","capitalLatitude":6.8,"capitalLongitude":-58.150000,"countryCode":"GY","continentName":"South America"},{"countryName":"Haiti","capitalName":"Port-au-Prince","capitalLatitude":18.533333333333335,"capitalLongitude":-72.333333,"countryCode":"HT","continentName":"North America"},{"countryName":"Vatican City","capitalName":"Vatican City","capitalLatitude":41.9,"capitalLongitude":12.450000,"countryCode":"VA","continentName":"Europe"},{"countryName":"Honduras","capitalName":"Tegucigalpa","capitalLatitude":14.1,"capitalLongitude":-87.216667,"countryCode":"HN","continentName":"Central America"},{"countryName":"Hungary","capitalName":"Budapest","capitalLatitude":47.5,"capitalLongitude":19.083333,"countryCode":"HU","continentName":"Europe"},{"countryName":"Iceland","capitalName":"Reykjavik","capitalLatitude":64.15,"capitalLongitude":-21.950000,"countryCode":"IS","continentName":"Europe"},{"countryName":"India","capitalName":"New Delhi","capitalLatitude":28.6,"capitalLongitude":77.200000,"countryCode":"IN","continentName":"Asia"},{"countryName":"Indonesia","capitalName":"Jakarta","capitalLatitude":-6.166666666666667,"capitalLongitude":106.816667,"countryCode":"ID","continentName":"Asia"},{"countryName":"Iran","capitalName":"Tehran","capitalLatitude":35.7,"capitalLongitude":51.416667,"countryCode":"IR","continentName":"Asia"},{"countryName":"Iraq","capitalName":"Baghdad","capitalLatitude":33.333333333333336,"capitalLongitude":44.400000,"countryCode":"IQ","continentName":"Asia"},{"countryName":"Ireland","capitalName":"Dublin","capitalLatitude":53.31666666666667,"capitalLongitude":-6.233333,"countryCode":"IE","continentName":"Europe"},{"countryName":"Isle of Man","capitalName":"Douglas","capitalLatitude":54.15,"capitalLongitude":-4.483333,"countryCode":"IM","continentName":"Europe"},{"countryName":"Israel","capitalName":"Jerusalem","capitalLatitude":31.766666666666666,"capitalLongitude":35.233333,"countryCode":"IL","continentName":"Asia"},{"countryName":"Italy","capitalName":"Rome","capitalLatitude":41.9,"capitalLongitude":12.483333,"countryCode":"IT","continentName":"Europe"},{"countryName":"Jamaica","capitalName":"Kingston","capitalLatitude":18,"capitalLongitude":-76.800000,"countryCode":"JM","continentName":"North America"},{"countryName":"Japan","capitalName":"Tokyo","capitalLatitude":35.68333333333333,"capitalLongitude":139.750000,"countryCode":"JP","continentName":"Asia"},
              {"countryName":"Jersey","capitalName":"Saint Helier","capitalLatitude":49.18333333333333,"capitalLongitude":-2.100000,"countryCode":"JE","continentName":"Europe"},{"countryName":"Jordan","capitalName":"Amman","capitalLatitude":31.95,"capitalLongitude":35.933333,"countryCode":"JO","continentName":"Asia"},{"countryName":"Kazakhstan","capitalName":"Astana","capitalLatitude":51.166666666666664,"capitalLongitude":71.416667,"countryCode":"KZ","continentName":"Asia"},{"countryName":"Kenya","capitalName":"Nairobi","capitalLatitude":-1.2833333333333332,"capitalLongitude":36.816667,"countryCode":"KE","continentName":"Africa"},{"countryName":"Kiribati","capitalName":"Tarawa","capitalLatitude":-0.8833333333333333,"capitalLongitude":169.533333,"countryCode":"KI","continentName":"Oceania"},
              {"countryName":"North Korea","capitalName":"Pyongyang","capitalLatitude":39.016666666666666,"capitalLongitude":125.750000,"countryCode":"KP","continentName":"Asia"},{"countryName":"South Korea","capitalName":"Seoul","capitalLatitude":37.55,"capitalLongitude":126.983333,"countryCode":"KR","continentName":"Asia"},{"countryName":"Kosovo","capitalName":"Pristina","capitalLatitude":42.666666666666664,"capitalLongitude":21.166667,"countryCode":"KO","continentName":"Europe"},{"countryName":"Kuwait","capitalName":"Kuwait City","capitalLatitude":29.366666666666667,"capitalLongitude":47.966667,"countryCode":"KW","continentName":"Asia"},{"countryName":"Kyrgyzstan","capitalName":"Bishkek","capitalLatitude":42.86666666666667,"capitalLongitude":74.600000,"countryCode":"KG","continentName":"Asia"},{"countryName":"Laos","capitalName":"Vientiane","capitalLatitude":17.966666666666665,"capitalLongitude":102.600000,"countryCode":"LA","continentName":"Asia"},{"countryName":"Latvia","capitalName":"Riga","capitalLatitude":56.95,"capitalLongitude":24.100000,"countryCode":"LV","continentName":"Europe"},{"countryName":"Lebanon","capitalName":"Beirut","capitalLatitude":33.86666666666667,"capitalLongitude":35.500000,"countryCode":"LB","continentName":"Asia"},{"countryName":"Lesotho","capitalName":"Maseru","capitalLatitude":-29.316666666666666,"capitalLongitude":27.483333,"countryCode":"LS","continentName":"Africa"},{"countryName":"Liberia","capitalName":"Monrovia","capitalLatitude":6.3,"capitalLongitude":-10.800000,"countryCode":"LR","continentName":"Africa"},{"countryName":"Libya","capitalName":"Tripoli","capitalLatitude":32.88333333333333,"capitalLongitude":13.166667,"countryCode":"LY","continentName":"Africa"},{"countryName":"Liechtenstein","capitalName":"Vaduz","capitalLatitude":47.13333333333333,"capitalLongitude":9.516667,"countryCode":"LI","continentName":"Europe"},{"countryName":"Lithuania","capitalName":"Vilnius","capitalLatitude":54.68333333333333,"capitalLongitude":25.316667,"countryCode":"LT","continentName":"Europe"},{"countryName":"Luxembourg","capitalName":"Luxembourg","capitalLatitude":49.6,"capitalLongitude":6.116667,"countryCode":"LU","continentName":"Europe"},{"countryName":"Macedonia","capitalName":"Skopje","capitalLatitude":42,"capitalLongitude":21.433333,"countryCode":"MK","continentName":"Europe"},{"countryName":"Madagascar","capitalName":"Antananarivo","capitalLatitude":-18.916666666666668,"capitalLongitude":47.516667,"countryCode":"MG","continentName":"Africa"},{"countryName":"Malawi","capitalName":"Lilongwe","capitalLatitude":-13.966666666666667,"capitalLongitude":33.783333,"countryCode":"MW","continentName":"Africa"},
              {"countryName":"Malaysia","capitalName":"Kuala Lumpur","capitalLatitude":3.1666666666666665,"capitalLongitude":101.700000,"countryCode":"MY","continentName":"Asia"},{"countryName":"Maldives","capitalName":"Male","capitalLatitude":4.166666666666667,"capitalLongitude":73.500000,"countryCode":"MV","continentName":"Asia"},{"countryName":"Mali","capitalName":"Bamako","capitalLatitude":12.65,"capitalLongitude":-8.000000,"countryCode":"ML","continentName":"Africa"},{"countryName":"Malta","capitalName":"Valletta","capitalLatitude":35.88333333333333,"capitalLongitude":14.500000,"countryCode":"MT","continentName":"Europe"},
              {"countryName":"Marshall Islands","capitalName":"Majuro","capitalLatitude":7.1,"capitalLongitude":171.383333,"countryCode":"MH","continentName":"Oceania"},{"countryName":"Mauritania","capitalName":"Nouakchott","capitalLatitude":18.066666666666666,"capitalLongitude":-15.966667,"countryCode":"MR","continentName":"Africa"},{"countryName":"Mauritius","capitalName":"Port Louis","capitalLatitude":-20.15,"capitalLongitude":57.483333,"countryCode":"MU","continentName":"Africa"},
              {"countryName":"Mexico","capitalName":"Mexico City","capitalLatitude":19.433333333333334,"capitalLongitude":-99.133333,"countryCode":"MX","continentName":"North America"},{"countryName":"Federated States of Micronesia","capitalName":"Palikir","capitalLatitude":6.916666666666667,"capitalLongitude":158.150000,"countryCode":"FM","continentName":"Oceania"},{"countryName":"Moldova","capitalName":"Chisinau","capitalLatitude":47,"capitalLongitude":28.850000,"countryCode":"MD","continentName":"Europe"},{"countryName":"Monaco","capitalName":"Monaco","capitalLatitude":43.733333333333334,"capitalLongitude":7.416667,"countryCode":"MC","continentName":"Europe"},{"countryName":"Mongolia","capitalName":"Ulaanbaatar","capitalLatitude":47.916666666666664,"capitalLongitude":106.916667,"countryCode":"MN","continentName":"Asia"},{"countryName":"Montenegro","capitalName":"Podgorica","capitalLatitude":42.43333333333333,"capitalLongitude":19.266667,"countryCode":"ME","continentName":"Europe"},{"countryName":"Montserrat","capitalName":"Plymouth","capitalLatitude":16.7,"capitalLongitude":-62.216667,"countryCode":"MS","continentName":"North America"},{"countryName":"Morocco","capitalName":"Rabat","capitalLatitude":34.016666666666666,"capitalLongitude":-6.816667,"countryCode":"MA","continentName":"Africa"},{"countryName":"Mozambique","capitalName":"Maputo","capitalLatitude":-25.95,"capitalLongitude":32.583333,"countryCode":"MZ","continentName":"Africa"},{"countryName":"Namibia","capitalName":"Windhoek","capitalLatitude":-22.566666666666666,"capitalLongitude":17.083333,"countryCode":"NA","continentName":"Africa"},{"countryName":"Nepal","capitalName":"Kathmandu","capitalLatitude":27.716666666666665,"capitalLongitude":85.316667,"countryCode":"NP","continentName":"Asia"},{"countryName":"Netherlands","capitalName":"Amsterdam","capitalLatitude":52.35,"capitalLongitude":4.916667,"countryCode":"NL","continentName":"Europe"},
              {"countryName":"New Caledonia","capitalName":"Noumea","capitalLatitude":-22.266666666666666,"capitalLongitude":166.450000,"countryCode":"NC","continentName":"Oceania"},
              {"countryName":"New Zealand","capitalName":"Wellington","capitalLatitude":-41.3,"capitalLongitude":174.783333,"countryCode":"NZ","continentName":"Oceania"},{"countryName":"Nicaragua","capitalName":"Managua","capitalLatitude":12.133333333333333,"capitalLongitude":-86.250000,"countryCode":"NI","continentName":"Central America"},{"countryName":"Niger","capitalName":"Niamey","capitalLatitude":13.516666666666667,"capitalLongitude":2.116667,"countryCode":"NE","continentName":"Africa"},{"countryName":"Nigeria","capitalName":"Abuja","capitalLatitude":9.083333333333334,"capitalLongitude":7.533333,"countryCode":"NG","continentName":"Africa"},{"countryName":"Niue","capitalName":"Alofi","capitalLatitude":-19.016666666666666,"capitalLongitude":-169.916667,"countryCode":"NU","continentName":"Oceania"},
              {"countryName":"Norfolk Island","capitalName":"Kingston","capitalLatitude":-29.05,"capitalLongitude":167.966667,"countryCode":"NF","continentName":"Oceania"},
              {"countryName":"Northern Mariana Islands","capitalName":"Saipan","capitalLatitude":15.2,"capitalLongitude":145.750000,"countryCode":"MP","continentName":"Oceania"},{"countryName":"Norway","capitalName":"Oslo","capitalLatitude":59.916666666666664,"capitalLongitude":10.750000,"countryCode":"NO","continentName":"Europe"},{"countryName":"Oman","capitalName":"Muscat","capitalLatitude":23.616666666666667,"capitalLongitude":58.583333,"countryCode":"OM","continentName":"Asia"},{"countryName":"Pakistan","capitalName":"Islamabad","capitalLatitude":33.68333333333333,"capitalLongitude":73.050000,"countryCode":"PK","continentName":"Asia"},{"countryName":"Palau","capitalName":"Melekeok","capitalLatitude":7.483333333333333,"capitalLongitude":134.633333,"countryCode":"PW","continentName":"Oceania"},
              {"countryName":"Panama","capitalName":"Panama City","capitalLatitude":8.966666666666667,"capitalLongitude":-79.533333,"countryCode":"PA","continentName":"Central America"},{"countryName":"Papua New Guinea","capitalName":"Port Moresby","capitalLatitude":-9.45,"capitalLongitude":147.183333,"countryCode":"PG","continentName":"Oceania"},{"countryName":"Paraguay","capitalName":"Asuncion","capitalLatitude":-25.266666666666666,"capitalLongitude":-57.666667,"countryCode":"PY","continentName":"South America"},{"countryName":"Peru","capitalName":"Lima","capitalLatitude":-12.05,"capitalLongitude":-77.050000,"countryCode":"PE","continentName":"South America"},{"countryName":"Philippines","capitalName":"Manila","capitalLatitude":14.6,"capitalLongitude":120.966667,"countryCode":"PH","continentName":"Asia"},
              {"countryName":"Pitcairn Islands","capitalName":"Adamstown","capitalLatitude":-25.066666666666666,"capitalLongitude":-130.083333,"countryCode":"PN","continentName":"Oceania"},{"countryName":"Poland","capitalName":"Warsaw","capitalLatitude":52.25,"capitalLongitude":21.000000,"countryCode":"PL","continentName":"Europe"},{"countryName":"Portugal","capitalName":"Lisbon","capitalLatitude":38.71666666666667,"capitalLongitude":-9.133333,"countryCode":"PT","continentName":"Europe"},{"countryName":"Puerto Rico","capitalName":"San Juan","capitalLatitude":18.466666666666665,"capitalLongitude":-66.116667,"countryCode":"PR","continentName":"North America"},{"countryName":"Qatar","capitalName":"Doha","capitalLatitude":25.283333333333335,"capitalLongitude":51.533333,"countryCode":"QA","continentName":"Asia"},{"countryName":"Romania","capitalName":"Bucharest","capitalLatitude":44.43333333333333,"capitalLongitude":26.100000,"countryCode":"RO","continentName":"Europe"},{"countryName":"Russia","capitalName":"Moscow","capitalLatitude":55.75,"capitalLongitude":37.600000,"countryCode":"RU","continentName":"Europe"},{"countryName":"Rwanda","capitalName":"Kigali","capitalLatitude":-1.95,"capitalLongitude":30.050000,"countryCode":"RW","continentName":"Africa"},
              {"countryName":"Saint Barthelemy","capitalName":"Gustavia","capitalLatitude":17.883333333333333,"capitalLongitude":-62.850000,"countryCode":"BL","continentName":"North America"},{"countryName":"Saint Helena","capitalName":"Jamestown","capitalLatitude":-15.933333333333334,"capitalLongitude":-5.716667,"countryCode":"SH","continentName":"Africa"},
              {"countryName":"Saint Kitts and Nevis","capitalName":"Basseterre","capitalLatitude":17.3,"capitalLongitude":-62.716667,"countryCode":"KN","continentName":"North America"},{"countryName":"Saint Lucia","capitalName":"Castries","capitalLatitude":14,"capitalLongitude":-61.000000,"countryCode":"LC","continentName":"North America"},{"countryName":"Saint Pierre and Miquelon","capitalName":"Saint-Pierre","capitalLatitude":46.766666666666666,"capitalLongitude":-56.183333,"countryCode":"PM","continentName":"North America"},{"countryName":"Saint Vincent and the Grenadines","capitalName":"Kingstown","capitalLatitude":13.133333333333333,"capitalLongitude":-61.216667,"countryCode":"VC","continentName":"North America"},{"countryName":"Samoa","capitalName":"Apia","capitalLatitude":-13.816666666666666,"capitalLongitude":-171.766667,"countryCode":"WS","continentName":"Oceania"},
              {"countryName":"San Marino","capitalName":"San Marino","capitalLatitude":43.93333333333333,"capitalLongitude":12.416667,"countryCode":"SM","continentName":"Europe"},{"countryName":"Sao Tome and Principe","capitalName":"Sao Tome","capitalLatitude":0.3333333333333333,"capitalLongitude":6.733333,"countryCode":"ST","continentName":"Africa"},{"countryName":"Saudi Arabia","capitalName":"Riyadh","capitalLatitude":24.65,"capitalLongitude":46.700000,"countryCode":"SA","continentName":"Asia"},{"countryName":"Senegal","capitalName":"Dakar","capitalLatitude":14.733333333333333,"capitalLongitude":-17.633333,"countryCode":"SN","continentName":"Africa"},{"countryName":"Serbia","capitalName":"Belgrade","capitalLatitude":44.833333333333336,"capitalLongitude":20.500000,"countryCode":"RS","continentName":"Europe"},{"countryName":"Seychelles","capitalName":"Victoria","capitalLatitude":-4.616666666666667,"capitalLongitude":55.450000,"countryCode":"SC","continentName":"Africa"},
              {"countryName":"Sierra Leone","capitalName":"Freetown","capitalLatitude":8.483333333333333,"capitalLongitude":-13.233333,"countryCode":"SL","continentName":"Africa"},{"countryName":"Singapore","capitalName":"Singapore","capitalLatitude":1.2833333333333332,"capitalLongitude":103.850000,"countryCode":"SG","continentName":"Asia"},{"countryName":"Sint Maarten","capitalName":"Philipsburg","capitalLatitude":18.016666666666666,"capitalLongitude":-63.033333,"countryCode":"SX","continentName":"North America"},{"countryName":"Slovakia","capitalName":"Bratislava","capitalLatitude":48.15,"capitalLongitude":17.116667,"countryCode":"SK","continentName":"Europe"},{"countryName":"Slovenia","capitalName":"Ljubljana","capitalLatitude":46.05,"capitalLongitude":14.516667,"countryCode":"SI","continentName":"Europe"},
              {"countryName":"Solomon Islands","capitalName":"Honiara","capitalLatitude":-9.433333333333334,"capitalLongitude":159.950000,"countryCode":"SB","continentName":"Oceania"},{"countryName":"Somalia","capitalName":"Mogadishu","capitalLatitude":2.066666666666667,"capitalLongitude":45.333333,"countryCode":"SO","continentName":"Africa"},{"countryName":"South Africa","capitalName":"Pretoria","capitalLatitude":-25.7,"capitalLongitude":28.216667,"countryCode":"ZA","continentName":"Africa"},
              {"countryName":"South Sudan","capitalName":"Juba","capitalLatitude":4.85,"capitalLongitude":31.616667,"countryCode":"SS","continentName":"Africa"},{"countryName":"Spain","capitalName":"Madrid","capitalLatitude":40.4,"capitalLongitude":-3.683333,"countryCode":"ES","continentName":"Europe"},{"countryName":"Sri Lanka","capitalName":"Colombo","capitalLatitude":6.916666666666667,"capitalLongitude":79.833333,"countryCode":"LK","continentName":"Asia"},{"countryName":"Sudan","capitalName":"Khartoum","capitalLatitude":15.6,"capitalLongitude":32.533333,"countryCode":"SD","continentName":"Africa"},{"countryName":"Suriname","capitalName":"Paramaribo","capitalLatitude":5.833333333333333,"capitalLongitude":-55.166667,"countryCode":"SR","continentName":"South America"},{"countryName":"Svalbard","capitalName":"Longyearbyen","capitalLatitude":78.21666666666667,"capitalLongitude":15.633333,"countryCode":"SJ","continentName":"Europe"},{"countryName":"Swaziland","capitalName":"Mbabane","capitalLatitude":-26.316666666666666,"capitalLongitude":31.133333,"countryCode":"SZ","continentName":"Africa"},{"countryName":"Sweden","capitalName":"Stockholm","capitalLatitude":59.333333333333336,"capitalLongitude":18.050000,"countryCode":"SE","continentName":"Europe"},{"countryName":"Switzerland","capitalName":"Bern","capitalLatitude":46.916666666666664,"capitalLongitude":7.466667,"countryCode":"CH","continentName":"Europe"},{"countryName":"Syria","capitalName":"Damascus","capitalLatitude":33.5,"capitalLongitude":36.300000,"countryCode":"SY","continentName":"Asia"},{"countryName":"Taiwan","capitalName":"Taipei","capitalLatitude":25.033333333333335,"capitalLongitude":121.516667,"countryCode":"TW","continentName":"Asia"},{"countryName":"Tajikistan","capitalName":"Dushanbe","capitalLatitude":38.55,"capitalLongitude":68.766667,"countryCode":"TJ","continentName":"Asia"},
              {"countryName":"Tanzania","capitalName":"Dar es Salaam","capitalLatitude":-6.8,"capitalLongitude":39.283333,"countryCode":"TZ","continentName":"Africa"},{"countryName":"Thailand","capitalName":"Bangkok","capitalLatitude":13.75,"capitalLongitude":100.516667,"countryCode":"TH","continentName":"Asia"},
              {"countryName":"Timor-Leste","capitalName":"Dili","capitalLatitude":-8.583333333333334,"capitalLongitude":125.600000,"countryCode":"TL","continentName":"Asia"},{"countryName":"Togo","capitalName":"Lome","capitalLatitude":6.116666666666666,"capitalLongitude":1.216667,"countryCode":"TG","continentName":"Africa"},{"countryName":"Tonga","capitalName":"Nuku'alofa","capitalLatitude":-21.133333333333333,"capitalLongitude":-175.200000,"countryCode":"TO","continentName":"Oceania"},
              {"countryName":"Trinidad and Tobago","capitalName":"Port of Spain","capitalLatitude":10.65,"capitalLongitude":-61.516667,"countryCode":"TT","continentName":"North America"},{"countryName":"Tunisia","capitalName":"Tunis","capitalLatitude":36.8,"capitalLongitude":10.183333,"countryCode":"TN","continentName":"Africa"},{"countryName":"Turkey","capitalName":"Ankara","capitalLatitude":39.93333333333333,"capitalLongitude":32.866667,"countryCode":"TR","continentName":"Europe"},{"countryName":"Turkmenistan","capitalName":"Ashgabat","capitalLatitude":37.95,"capitalLongitude":58.383333,"countryCode":"TM","continentName":"Asia"},
              {"countryName":"Turks and Caicos Islands","capitalName":"Grand Turk","capitalLatitude":21.466666666666665,"capitalLongitude":-71.133333,"countryCode":"TC","continentName":"North America"},{"countryName":"Tuvalu","capitalName":"Funafuti","capitalLatitude":-8.516666666666667,"capitalLongitude":179.216667,"countryCode":"TV","continentName":"Oceania"},{"countryName":"Uganda","capitalName":"Kampala","capitalLatitude":0.31666666666666665,"capitalLongitude":32.550000,"countryCode":"UG","continentName":"Africa"},{"countryName":"Ukraine","capitalName":"Kyiv","capitalLatitude":50.43333333333333,"capitalLongitude":30.516667,"countryCode":"UA","continentName":"Europe"},
              {"countryName":"United Arab Emirates","capitalName":"Abu Dhabi","capitalLatitude":24.466666666666665,"capitalLongitude":54.366667,"countryCode":"AE","continentName":"Asia"},{"countryName":"United Kingdom","capitalName":"London","capitalLatitude":51.5,"capitalLongitude":-0.083333,"countryCode":"GB","continentName":"Europe"},
              {"countryName":"United States of America","capitalName":"Washington D.C","capitalLatitude": 38.883333,"capitalLongitude":-77.000000,"countryCode":"US","continentName":"North America"},{"countryName":"Uruguay","capitalName":"Montevideo","capitalLatitude":-34.85,"capitalLongitude":-56.166667,"countryCode":"UY","continentName":"South America"},{"countryName":"Uzbekistan","capitalName":"Tashkent","capitalLatitude":41.31666666666667,"capitalLongitude":69.250000,"countryCode":"UZ","continentName":"Asia"},{"countryName":"Vanuatu","capitalName":"Port-Vila","capitalLatitude":-17.733333333333334,"capitalLongitude":168.316667,"countryCode":"VU","continentName":"Oceania"},{"countryName":"Venezuela","capitalName":"Caracas","capitalLatitude":10.483333333333333,"capitalLongitude":-66.866667,"countryCode":"VE","continentName":"South America"},{"countryName":"Vietnam","capitalName":"Hanoi","capitalLatitude":21.033333333333335,"capitalLongitude":105.850000,"countryCode":"VN","continentName":"Asia"},
              {"countryName":"US Virgin Islands","capitalName":"Charlotte Amalie","capitalLatitude":18.35,"capitalLongitude":-64.933333,"countryCode":"VI","continentName":"North America"},{"countryName":"Wallis and Futuna","capitalName":"Mata-Utu","capitalLatitude":-13.95,"capitalLongitude":-171.933333,"countryCode":"WF","continentName":"Oceania"},
              {"countryName":"Yemen","capitalName":"Sanaa","capitalLatitude":15.35,"capitalLongitude":44.200000,"countryCode":"YE","continentName":"Asia"},{"countryName":"Zambia","capitalName":"Lusaka","capitalLatitude":-15.416666666666666,"capitalLongitude":28.283333,"countryCode":"ZM","continentName":"Africa"},{"countryName":"Zimbabwe","capitalName":"Harare","capitalLatitude":-17.816666666666666,"capitalLongitude":31.033333,"countryCode":"ZW","continentName":"Africa"},
              {"countryName":"US Minor Outlying Islands","capitalName":"Washington D.C.","capitalLatitude":38.883333,"capitalLongitude":-77.000000,"countryCode":"UM","continentName":"North America"},{"countryName":"Antarctica","capitalName":"N/A","capitalLatitude":-75.25097,"capitalLongitude":-0.07139,"countryCode":"AQ","continentName":"Antarctica"},
              {"countryName":"Northern Cyprus","capitalName":"North Nicosia","capitalLatitude":35.183333,"capitalLongitude":33.366667,"countryCode":"NULL","continentName":"Europe"},{"countryName":"Hong Kong","capitalName":"N/A","capitalLatitude":22.27832,"capitalLongitude":114.17469,"countryCode":"HK","continentName":"Asia"},
              {"countryName":"Heard Island and McDonald Islands","capitalName":"N/A","capitalLatitude":-53.0999996,"capitalLongitude":73.5166646,"countryCode":"HM","continentName":"Antarctica"},
              {"countryName":"British Indian Ocean Territory","capitalName":"Diego Garcia","capitalLatitude":-7.3,"capitalLongitude":72.400000,"countryCode":"IO","continentName":"Africa"},
              {"countryName":"Macau","capitalName":"N/A","capitalLatitude":22.1987,"capitalLongitude":113.5439,"countryCode":"MO","continentName":"Asia"}]
}
